step,time,gps_x,gps_y,gps_z,gps_speed,gyro_x,gyro_y,gyro_z,imu_roll,imu_pitch,imu_yaw,imu_quat_x,imu_quat_y,imu_quat_z,imu_quat_w,radar_targets_count,roof_lidar_min_dist,roof_lidar_max_dist,roof_lidar_mean_dist,camera_red,camera_green,camera_blue,camera_gray,camera_recognition_objects,driver_speed,driver_steering_angle,driver_brake_intensity,collision_detected
0,0.010000,nan,nan,nan,nan,nan,nan,nan,0.000000,0.000000,0.000000,0.000000,0.000000,0.000000,0.000000,0,0.000000,0.000000,0.000000,0,0,0,0.0,0,nan,-0.000000,0.400000,0
1,0.060000,-45.000001,45.880000,0.385267,0.491104,-0.000000,-0.000461,0.000000,-0.000000,-0.000014,3.141590,0.000007,-0.000000,1.000000,0.000001,1,14.689896,99.982086,48.360149,136,127,120,127.66666666666667,10,0.701778,-0.000000,0.000000,0
2,0.110000,-45.004556,45.879996,0.349335,0.832969,0.000058,-0.060671,-0.000054,0.000002,-0.001291,3.141588,0.000646,0.000001,1.000000,0.000002,1,14.681352,99.990898,48.407925,135,126,119,126.66666666666667,10,1.370376,-0.000692,0.000000,0
3,0.160000,-45.026986,45.879916,0.310686,0.892921,0.000656,-0.110982,0.000817,0.000038,-0.006326,3.141564,0.003163,0.000019,0.999995,0.000014,1,14.694820,99.983337,48.700268,46,47,52,48.333333333333336,10,2.120684,-0.012731,0.000000,0
4,0.210000,-45.060054,45.879818,0.284813,0.831195,0.001463,-0.091922,0.004795,0.000097,-0.011425,-3.141490,0.005712,0.000049,0.999984,-0.000052,1,14.704607,99.978218,48.431189,45,44,48,45.666666666666664,10,2.834717,-0.027542,0.000000,0
5,0.260000,-45.103192,45.879777,0.275911,0.948267,0.000891,-0.049228,0.008336,0.000136,-0.014812,-3.141102,0.007406,0.000070,0.999973,-0.000246,1,14.722983,99.989532,48.523650,36,36,37,36.333333333333336,10,3.547246,-0.027941,0.000000,0
6,0.310000,-45.156878,45.879579,0.281044,1.173092,0.001758,0.001890,0.012083,0.000214,-0.015732,-3.140640,0.007866,0.000111,0.999969,-0.000477,1,14.773275,99.965080,48.466454,31,31,31,31.0,10,4.261205,-0.040055,0.000000,0
7,0.360000,-45.221118,45.879434,0.293799,1.397893,-0.000460,0.041838,0.015026,0.000206,-0.014363,-3.139865,0.007181,0.000109,0.999974,-0.000865,1,0.630494,99.983398,48.543594,29,30,30,29.666666666666668,10,4.975682,-0.033432,0.000000,0
8,0.410000,-45.295809,45.879121,0.307486,1.596533,-0.000699,0.059118,0.015297,0.000169,-0.011654,-3.139138,0.005827,0.000092,0.999982,-0.001228,1,11.053768,99.973145,48.443953,29,30,32,30.333333333333332,10,5.690642,-0.033174,0.000000,0
9,0.460000,-45.380625,45.878818,0.317417,1.782387,-0.002619,0.052983,0.013030,0.000054,-0.008798,-3.138348,0.004399,0.000034,0.999989,-0.001623,1,14.950738,99.961456,48.660000,30,31,35,32.0,10,6.405645,-0.018666,0.000000,0
10,0.510000,-45.475210,45.878421,0.321707,1.968820,-0.002511,0.031024,0.006463,-0.000079,-0.006766,-3.137885,0.003383,-0.000033,0.999993,-0.001854,1,15.020936,99.948586,48.639324,30,31,35,32.0,10,7.120226,-0.006764,0.000000,0
11,0.560000,-45.579320,45.877977,0.320916,2.158544,-0.000366,0.004500,0.002537,-0.000139,-0.006015,-3.137708,0.003008,-0.000064,0.999994,-0.001942,1,15.085216,99.979256,48.619187,31,33,37,33.666666666666664,10,7.834102,-0.002841,0.000000,0
12,0.610000,-45.692933,45.877512,0.317013,2.350631,0.001921,-0.016582,0.002472,-0.000084,-0.006459,-3.137611,0.003230,-0.000036,0.999993,-0.001990,1,15.222400,99.975639,48.602274,29,31,35,31.666666666666668,10,8.547346,-0.004264,0.000000,0
13,0.660000,-45.816189,45.876930,0.312281,2.544837,0.004780,-0.026503,0.009054,0.000101,-0.007636,-3.137385,0.003818,0.000059,0.999990,-0.002104,1,15.312412,99.915192,48.495443,28,29,32,29.666666666666668,10,9.260204,-0.016978,0.000000,0
14,0.710000,-45.949264,45.876151,0.308494,2.741436,0.006475,-0.024791,0.023355,0.000385,-0.008951,-3.136583,0.004475,0.000204,0.999987,-0.002506,1,7.998087,99.870415,48.431827,24,26,28,26.0,10,9.972928,-0.035208,0.000000,0
15,0.760000,-46.092296,45.875212,0.306530,2.941428,-0.000109,-0.015456,0.027540,0.000500,-0.009930,-3.135111,0.004964,0.000266,0.999982,-0.003242,1,15.502788,99.975800,48.362979,19,22,22,21.0,10,10.685856,-0.027822,0.000000,0
16,0.810000,-46.245430,45.873827,0.306381,3.143669,-0.001731,-0.003737,0.027181,0.000414,-0.010352,-3.133836,0.005175,0.000227,0.999979,-0.003880,1,7.994991,99.994194,48.322555,17,20,20,19.0,10,11.398842,-0.030336,0.000000,0
17,0.860000,-46.408673,45.872377,0.307486,3.346271,-0.009064,0.005690,0.012953,0.000101,-0.010239,-3.132605,0.005119,0.000074,0.999977,-0.004494,1,15.745290,99.994957,48.261243,16,19,19,18.0,10,12.111614,-0.002180,0.000000,0
18,0.910000,-46.582010,45.870608,0.309070,3.547106,-0.003126,0.010554,0.002372,-0.000200,-0.009789,-3.132514,0.004895,-0.000078,0.999978,-0.004539,1,12.630082,99.995384,48.289195,16,19,19,18.0,10,12.824941,-0.003979,0.000000,0
19,0.960000,-46.765310,45.868845,0.310490,3.745530,0.004384,0.010587,0.009331,-0.000128,-0.009243,-3.132228,0.004622,-0.000043,0.999978,-0.004682,1,15.216625,99.981750,48.272929,16,19,19,18.0,10,13.537685,-0.010852,0.000000,0
20,1.010000,-46.958477,45.866780,0.311361,3.941858,0.012097,0.007277,0.029989,0.000311,-0.008805,-3.131349,0.004402,0.000178,0.999977,-0.005123,1,16.230450,99.934486,48.244922,16,19,19,18.0,10,14.249912,-0.034105,0.000000,0
21,1.060000,-47.161388,45.864221,0.311611,4.136226,0.010628,0.002785,0.053940,0.000861,-0.008576,-3.129104,0.004285,0.000457,0.999971,-0.006246,1,16.404398,99.985947,48.228261,15,18,18,17.0,10,14.962096,-0.048380,0.000000,0
22,1.110000,-47.374030,45.860862,0.311365,4.332137,0.000313,-0.001551,0.059616,0.001059,-0.008572,-3.126083,0.004282,0.000563,0.999961,-0.007757,1,10.628109,99.984917,48.110836,26,28,27,27.0,10,15.673908,-0.044266,0.000000,0
23,1.160000,-47.596540,45.856563,0.310839,4.530495,-0.005600,-0.004278,0.054659,0.000842,-0.008744,-3.123238,0.004368,0.000461,0.999948,-0.009179,1,16.750402,99.985191,48.125265,32,35,32,33.0,10,16.385560,-0.038632,0.000000,0
24,1.210000,-47.828971,45.851461,0.310288,4.729289,-0.003780,-0.004633,0.051357,0.000566,-0.008979,-3.120626,0.004486,0.000330,0.999935,-0.010485,1,16.454166,99.980087,48.021106,35,38,34,35.666666666666664,10,17.097045,-0.035572,0.000000,0
25,1.260000,-48.071336,45.845629,0.309897,4.928379,0.000477,-0.003283,0.049482,0.000478,-0.009176,-3.118114,0.004585,0.000293,0.999921,-0.011740,1,10.285188,99.920044,47.964413,36,39,34,36.333333333333336,10,17.808273,-0.032890,0.000000,0
26,1.310000,-48.323631,45.838959,0.309738,5.126950,0.006377,-0.001125,0.055440,0.000645,-0.009279,-3.115574,0.004635,0.000383,0.999905,-0.013010,1,12.790662,99.978851,47.835279,37,41,34,37.333333333333336,10,18.519225,-0.038514,0.000000,0
27,1.360000,-48.585809,45.831336,0.309795,5.325101,0.006329,0.000756,0.063080,0.000947,-0.009278,-3.112547,0.004632,0.000541,0.999884,-0.014524,1,8.983954,99.967087,47.842458,34,38,32,34.666666666666664,10,19.229927,-0.040297,0.000000,0
28,1.410000,-48.857865,45.822474,0.309975,5.523137,0.003952,0.001781,0.070155,0.001148,-0.009210,-3.109231,0.004595,0.000648,0.999858,-0.016183,1,14.913049,99.993050,47.684809,25,28,26,26.333333333333332,10,19.940361,-0.043982,0.000000,0
29,1.460000,-49.139760,45.812215,0.310184,5.720608,0.001633,0.001957,0.078444,0.001222,-0.009118,-3.105493,0.004547,0.000693,0.999826,-0.018051,1,18.080772,99.947136,47.690629,15,19,17,17.0,10,20.650516,-0.047089,0.000000,0
30,1.510000,-49.431484,45.800434,0.310345,5.918655,-0.001526,0.001315,0.079873,0.001160,-0.009041,-3.101465,0.004508,0.000671,0.999788,-0.020065,1,10.837888,99.965157,47.635094,15,18,18,17.0,10,21.360409,-0.044244,0.000000,0
31,1.560000,-49.733087,45.787077,0.310410,6.117683,-0.002545,0.000337,0.074411,0.001002,-0.009008,-3.097607,0.004492,0.000600,0.999748,-0.021993,1,13.075086,99.892685,47.493136,15,17,18,16.666666666666668,10,22.070082,-0.039175,0.000000,0
32,1.610000,-50.044618,45.772314,0.310382,6.318042,-0.006346,-0.000619,0.054615,0.000753,-0.009022,-3.094302,0.004501,0.000483,0.999710,-0.023645,1,18.920094,99.953575,47.433035,16,18,20,18.0,10,22.779414,-0.023686,0.000000,0
33,1.660000,-50.366130,45.756301,0.310292,6.518009,-0.003533,-0.000909,0.038340,0.000479,-0.009068,-3.092172,0.004526,0.000351,0.999684,-0.024708,1,19.179794,99.974899,47.350303,16,18,21,18.333333333333332,10,23.488760,-0.018329,0.000000,0
34,1.710000,-50.697563,45.739338,0.310205,6.716915,-0.001777,-0.000645,0.029972,0.000358,-0.009107,-3.090484,0.004547,0.000295,0.999663,-0.025552,1,18.308060,99.980804,47.283019,16,18,20,18.0,10,24.197498,-0.013327,0.000000,0
35,1.760000,-51.038894,45.721354,0.310150,6.915361,0.001435,-0.000193,0.033102,0.000333,-0.009127,-3.089038,0.004557,0.000286,0.999644,-0.026275,1,17.860456,99.856117,47.203558,16,18,20,18.0,10,24.905839,-0.017753,0.000000,0
36,1.810000,-51.390090,45.702298,0.310140,7.113622,0.000290,0.000166,0.037309,0.000362,-0.009125,-3.087189,0.004556,0.000305,0.999620,-0.027199,1,18.835482,99.991890,47.081657,16,18,20,18.0,10,25.613829,-0.017283,0.000000,0
37,1.860000,-51.751159,45.682021,0.310159,7.312233,-0.000750,0.000292,0.034130,0.000316,-0.009113,-3.085392,0.004550,0.000286,0.999595,-0.028097,1,15.696593,99.970810,47.035597,16,18,20,18.0,10,26.321467,-0.014854,0.000000,0
38,1.910000,-52.122114,45.660620,0.310190,7.510928,0.001392,0.000288,0.028221,0.000320,-0.009098,-3.083843,0.004543,0.000291,0.999573,-0.028871,1,18.239700,99.978874,46.931010,16,18,20,18.0,10,27.028764,-0.011598,0.000000,0
39,1.960000,-52.502964,45.638230,0.310221,7.709638,0.002410,0.000204,0.019459,0.000428,-0.009087,-3.082659,0.004535,0.000348,0.999556,-0.029463,1,11.907135,99.942970,46.773024,15,18,20,17.666666666666668,10,27.735688,-0.007003,0.000000,0
40,2.010000,-52.893704,45.614895,0.310242,7.908039,0.002730,0.000132,0.018270,0.000551,-0.009079,-3.081820,0.004529,0.000411,0.999543,-0.029883,1,11.729435,99.964745,46.681239,15,18,20,17.666666666666668,10,28.442239,-0.008366,0.000000,0
41,2.060000,-53.294318,45.590590,0.310252,8.106390,-0.002615,0.000037,0.019104,0.000534,-0.009076,-3.080842,0.004528,0.000405,0.999528,-0.030372,1,15.416670,99.903564,46.625033,15,18,19,17.333333333333332,10,29.148359,-0.007521,0.000000,0
42,2.110000,-53.704805,45.565198,0.310250,8.304771,-0.005956,-0.000043,0.019484,0.000264,-0.009077,-3.079903,0.004532,0.000272,0.999514,-0.030840,1,16.929274,99.993843,46.580963,15,18,19,17.333333333333332,10,29.854080,-0.008043,0.000000,0
43,2.160000,-54.125166,45.538797,0.310241,8.503141,-0.002949,-0.000077,0.018815,0.000022,-0.009080,-3.078923,0.004538,0.000153,0.999499,-0.031329,1,11.717409,99.909019,46.418515,15,18,20,17.666666666666668,10,30.559387,-0.007108,0.000000,0
44,2.210000,-54.543624,45.511845,0.312501,8.195155,0.018076,-0.119936,0.038869,-0.001010,-0.011645,-3.077916,0.005836,-0.000319,0.999476,-0.031830,1,16.286203,99.987534,46.214302,16,19,19,18.0,10,31.288358,0.003512,0.000000,0
45,2.260000,-54.965543,45.485657,0.313811,8.749601,0.004361,-0.177639,-0.022572,-0.000936,-0.018621,-3.077012,0.009321,-0.000167,0.999435,-0.032279,1,19.573000,99.997185,45.696273,17,21,20,19.333333333333332,8,31.916113,0.009982,0.000000,0
46,2.310000,-55.413714,45.457168,0.310340,9.074788,-0.002609,-0.125013,-0.035884,-0.000821,-0.026514,-3.078643,0.013263,0.000007,0.999417,-0.031462,1,19.401981,99.946854,45.334695,20,25,22,22.333333333333332,8,32.675129,0.014524,0.000000,0
47,2.360000,-55.872183,45.428934,0.307876,9.268348,-0.008832,-0.029500,-0.043449,-0.001079,-0.029813,-3.080684,0.014916,-0.000085,0.999425,-0.030438,1,19.278437,99.971779,45.223577,22,27,23,24.0,8,33.373830,0.015710,0.000000,0
48,2.410000,-56.341861,45.401005,0.306733,9.503945,-0.008839,0.032789,-0.044902,-0.001502,-0.029291,-3.082894,0.014661,-0.000321,0.999462,-0.029331,1,19.097879,99.995522,45.188887,25,33,25,27.666666666666668,7,34.074866,0.016080,0.000000,0
49,2.460000,-56.822675,45.373584,0.306946,9.714740,0.006637,0.061876,-0.038016,-0.001457,-0.026639,-3.085036,0.013334,-0.000352,0.999512,-0.028263,1,15.235647,99.990707,44.800009,28,38,26,30.666666666666668,7,34.779832,0.011635,0.000000,0
50,2.510000,-57.313644,45.346663,0.308232,9.912569,0.016403,0.058604,-0.028188,-0.000732,-0.023537,-3.086633,0.011774,-0.000042,0.999553,-0.027470,1,17.293842,99.998451,44.617623,25,34,24,27.666666666666668,7,35.483491,0.008530,0.000000,0
51,2.560000,-57.814038,45.318785,0.325551,10.151945,-0.001338,0.146651,-0.012428,-0.001458,-0.016437,-3.087868,0.008235,-0.000508,0.999605,-0.026852,1,18.435261,99.949928,45.044892,22,29,22,24.333333333333332,7,36.176511,0.001696,0.000000,0
52,2.610000,-58.326321,45.291441,0.345439,10.339007,0.010375,0.126354,0.001782,-0.001140,-0.009560,-3.088006,0.004794,-0.000442,0.999630,-0.026787,1,14.574038,99.987877,45.066308,16,18,20,18.0,7,36.886636,-0.001414,0.000000,0
53,2.660000,-58.847619,45.263552,0.360462,10.516423,0.016961,0.074203,0.013070,-0.000443,-0.004730,-3.087636,0.002370,-0.000158,0.999633,-0.026975,1,18.483997,99.999596,45.006724,17,20,21,19.333333333333332,7,37.588371,-0.005554,0.000000,0
54,2.710000,-59.377929,45.234909,0.367342,10.693770,0.016310,0.016603,0.012455,0.000435,-0.002773,-3.086863,0.001380,0.000255,0.999625,-0.027362,1,18.392048,99.896950,44.672319,17,20,21,19.333333333333332,7,38.290102,-0.002953,0.000000,0
55,2.760000,-59.917257,45.205397,0.366544,10.876506,0.003950,-0.027360,0.002574,0.000936,-0.003341,-3.086514,0.001657,0.000514,0.999619,-0.027536,1,16.297983,99.637871,44.803099,17,21,22,20.0,7,38.990175,0.000270,0.000000,0
56,2.810000,-60.465909,45.175072,0.360824,11.067389,-0.011902,-0.049146,-0.000271,0.000637,-0.005456,-3.086539,0.002718,0.000394,0.999617,-0.027524,1,17.824209,99.952637,44.834291,17,21,21,19.666666666666668,7,39.688856,-0.000002,0.000000,0
57,2.860000,-61.024282,45.144029,0.353600,11.265307,-0.013889,-0.049287,0.002722,-0.000107,-0.007994,-3.086480,0.003997,0.000057,0.999612,-0.027552,1,18.216780,99.991539,44.752154,17,19,21,19.0,7,40.386538,-0.001185,0.000000,0
58,2.910000,-61.592699,45.112406,0.347659,11.467783,0.005511,-0.034495,0.013359,-0.000294,-0.010056,-3.086121,0.005030,-0.000008,0.999603,-0.027731,1,16.332878,99.969482,44.261963,16,18,20,18.0,7,41.083590,-0.005414,0.000000,0
59,2.960000,-62.171296,45.080025,0.344473,11.671913,0.022150,-0.013812,0.032544,0.000512,-0.011167,-3.084967,0.005574,0.000414,0.999584,-0.028310,1,18.153111,99.411484,43.885521,16,19,19,18.0,7,41.780279,-0.011303,0.000000,0
60,3.010000,-62.759584,45.046104,0.344257,11.834334,0.007006,0.033814,0.047703,0.001176,-0.011063,-3.082843,0.005512,0.000750,0.999553,-0.029373,1,18.119247,99.910454,43.450991,16,20,20,18.666666666666668,7,42.498204,-0.018155,0.000000,0
61,3.060000,-63.349941,45.011309,0.347511,11.861435,-0.027531,0.193673,0.070978,0.001255,-0.003931,-3.080421,0.001945,0.000687,0.999530,-0.030582,1,18.081039,99.994072,43.238317,15,19,21,18.333333333333332,7,43.161031,-0.023520,0.000000,0
62,3.110000,-63.956472,44.972448,0.348954,12.320979,0.021586,0.115793,0.088043,0.002375,0.003408,-3.076760,-0.001741,0.001132,0.999473,-0.032408,1,18.040575,99.927872,42.674071,24,27,26,25.666666666666668,7,43.853611,-0.024547,0.000000,0
63,3.160000,-64.576787,44.930485,0.349577,12.497339,0.014219,0.063750,0.091847,0.003288,0.007615,-3.072212,-0.003862,0.001511,0.999390,-0.034677,1,14.723098,99.856056,42.538456,78,73,68,73.0,7,44.567560,-0.024756,0.000000,0
64,3.210000,-65.205056,44.884839,0.350589,12.669594,-0.005282,0.008835,0.094694,0.003439,0.009117,-3.067561,-0.004619,0.001550,0.999303,-0.036999,1,17.945814,99.839554,42.133282,153,148,116,139.0,7,45.261156,-0.025085,0.000000,0
65,3.260000,-65.841797,44.833478,0.347689,12.842379,0.083859,-0.096835,0.061154,0.004928,0.007157,-3.063449,-0.003672,0.002322,0.999228,-0.039053,1,17.895258,99.872604,41.881556,130,121,113,121.33333333333333,7,45.966645,-0.027284,0.000000,0
66,3.310000,-66.485550,44.777563,0.329733,13.003302,-0.027811,-0.166447,0.120163,0.005276,-0.000564,-3.058924,0.000173,0.002647,0.999142,-0.041323,1,17.837719,99.971268,41.638606,125,116,109,116.66666666666667,7,46.652077,-0.034228,0.000000,0
67,3.360000,-67.139091,44.719677,0.311368,13.209870,-0.005081,-0.144392,0.161543,0.004256,-0.008496,-3.051839,0.004148,0.002317,0.998982,-0.044870,1,16.964073,99.979095,41.114817,41,40,40,40.333333333333336,7,47.342506,-0.044009,0.000000,0
68,3.410000,-67.801615,44.656145,0.298875,13.391491,0.020984,-0.078637,0.205360,0.004526,-0.013808,-3.042442,0.006783,0.002602,0.998744,-0.049569,1,16.500399,99.997185,41.082965,17,20,20,19.0,7,48.030347,-0.052378,0.000000,0
69,3.460000,-68.473163,44.585147,0.294276,13.588552,0.040668,-0.011316,0.229110,0.005848,-0.015703,-3.031405,0.007679,0.003352,0.998446,-0.055087,1,17.624926,99.961433,41.206071,15,18,18,17.0,7,48.629947,-0.056124,0.000000,0
70,3.510000,-69.152943,44.505779,0.296606,13.745187,0.033770,0.044539,0.246801,0.007522,-0.014612,-3.019374,0.007062,0.004200,0.998098,-0.061097,1,17.538958,99.993484,40.977674,18,22,21,20.333333333333332,7,49.023058,-0.055908,0.000000,0
71,3.560000,-69.836922,44.418439,0.303644,13.823964,0.011191,0.078299,0.267210,0.008211,-0.011294,-3.006434,0.005357,0.004478,0.997692,-0.067549,1,17.440090,99.959778,40.662773,15,18,19,17.333333333333332,7,49.353647,-0.057341,0.000000,0
72,3.610000,-70.522836,44.321795,0.311982,13.869786,0.009249,0.080293,0.276329,0.008509,-0.007335,-2.992865,0.003341,0.004515,0.997219,-0.074310,1,17.329464,99.789284,40.429318,25,28,26,26.333333333333332,7,49.426035,-0.059683,0.000000,0
73,3.660000,-71.208598,44.215494,0.318927,13.882119,0.015361,0.061037,0.287509,0.008963,-0.003966,-2.978706,0.001612,0.004628,0.996673,-0.081361,1,17.209120,99.926666,40.783246,26,27,27,26.666666666666668,7,49.431522,-0.061767,0.000000,0
74,3.710000,-71.892544,44.099588,0.323032,13.865478,0.005612,0.032981,0.295436,0.009415,-0.001890,-2.964092,0.000524,0.004773,0.996052,-0.088637,1,17.079214,99.889931,40.851211,25,28,26,26.333333333333332,6,49.435891,-0.062641,0.000000,0
75,3.760000,-72.573306,43.973659,0.324149,13.834696,-0.003294,0.006046,0.292141,0.009410,-0.001205,-2.949444,0.000148,0.004741,0.995377,-0.095928,1,16.938408,99.385437,41.002122,28,30,28,28.666666666666668,6,49.436839,-0.062903,0.000000,0
76,3.810000,-73.251986,43.837615,0.322623,13.847289,-0.001818,-0.018768,0.300033,0.009204,-0.001875,-2.934679,0.000457,0.004674,0.994642,-0.103276,1,16.787699,99.135971,40.873154,89,82,77,82.66666666666667,7,49.435593,-0.063991,0.000000,0
77,3.860000,-73.928752,43.691524,0.319792,13.849062,0.007573,-0.025748,0.309770,0.009407,-0.003211,-2.919566,0.001074,0.004852,0.993831,-0.110792,1,16.628344,99.994049,40.915674,35,35,34,34.666666666666664,7,49.435056,-0.066102,0.000000,0
78,3.910000,-74.602335,43.535463,0.317241,13.812431,0.006259,-0.014641,0.324109,0.009728,-0.004357,-2.903777,0.001586,0.005088,0.992923,-0.118637,1,16.458801,99.943298,41.025855,60,60,62,60.666666666666664,7,49.438960,-0.070193,0.000000,0
79,3.960000,-75.272192,43.368837,0.315709,13.814757,0.013728,-0.008497,0.343617,0.010154,-0.005005,-2.887177,0.001838,0.005353,0.991902,-0.126876,1,16.278021,99.957123,41.384785,43,42,43,42.666666666666664,8,49.428080,-0.074320,0.000000,0
80,4.010000,-75.940610,43.190720,0.314812,13.840639,0.018346,-0.002760,0.352927,0.010888,-0.005511,-2.869667,0.001992,0.005767,0.990751,-0.135557,1,16.067101,99.982979,41.464955,18,22,22,20.666666666666668,8,49.434529,-0.074827,0.000000,0
81,4.060000,-76.605556,43.000827,0.315005,13.819424,0.010428,0.010567,0.345027,0.011510,-0.005457,-2.852250,0.001870,0.006088,0.989531,-0.144180,1,15.551654,99.891762,41.450606,16,19,19,18.0,8,49.437569,-0.074054,0.000000,0
82,4.110000,-77.266324,42.799305,0.315953,13.821215,-0.003083,0.012135,0.336578,0.011522,-0.005032,-2.835294,0.001607,0.006078,0.988274,-0.152563,1,15.045701,99.995148,41.372462,25,31,27,27.666666666666668,8,49.432782,-0.072224,0.000000,0
83,4.160000,-77.923900,42.586645,0.316891,13.831756,-0.005808,0.009572,0.349574,0.011021,-0.004639,-2.818283,0.001402,0.005812,0.986943,-0.160961,1,14.589035,99.953293,41.299575,24,27,26,25.666666666666668,8,49.430255,-0.074724,0.000000,0
84,4.210000,-78.578612,42.362709,0.317407,13.840521,0.004195,0.007045,0.362917,0.010905,-0.004461,-2.800459,0.001272,0.005752,0.985470,-0.169750,1,14.113442,99.993881,40.987285,18,21,23,20.666666666666668,8,49.434526,-0.077263,0.000000,0
85,4.260000,-79.228067,42.127469,0.317929,13.799298,0.011319,0.011601,0.372403,0.011218,-0.004154,-2.782136,0.001041,0.005890,0.983873,-0.178771,1,13.690612,99.998077,40.560767,20,22,27,23.0,9,49.436213,-0.080791,0.000000,0
86,4.310000,-79.872228,41.880377,0.318186,13.802109,0.014375,0.005179,0.375591,0.011825,-0.003981,-2.763424,0.000844,0.006181,0.982155,-0.187967,1,11.316685,99.964241,40.145835,16,19,21,18.666666666666668,9,49.433854,-0.080947,0.000000,0
87,4.360000,-80.512774,41.620799,0.317789,13.830779,0.012196,-0.002306,0.375088,0.012420,-0.004250,-2.744642,0.000859,0.006507,0.980345,-0.197184,1,12.944077,99.973289,40.093296,18,22,21,20.333333333333332,9,49.434067,-0.079474,0.000000,0
88,4.410000,-81.147898,41.349320,0.317464,13.804600,0.000967,0.003224,0.364038,0.012610,-0.004423,-2.726297,0.000864,0.006625,0.978494,-0.206168,1,12.649653,99.972084,39.988086,37,40,34,37.0,9,49.435716,-0.078264,0.000000,0
89,4.460000,-81.777369,41.066428,0.317291,13.804343,-0.006401,0.002692,0.366189,0.012262,-0.004503,-2.708128,0.000880,0.006472,0.976582,-0.215049,1,12.375244,99.987999,40.034821,22,25,23,23.333333333333332,9,49.433753,-0.079040,0.000000,0
90,4.510000,-82.401790,40.772088,0.317092,13.819389,-0.001116,0.000672,0.380315,0.011901,-0.004598,-2.689574,0.000907,0.006314,0.974545,-0.224099,1,10.623068,99.997223,40.076415,43,43,46,44.0,9,49.429675,-0.081243,0.000000,0
91,4.560000,-83.021006,40.466035,0.316929,13.800697,0.005403,0.007212,0.380415,0.011968,-0.004661,-2.670541,0.000870,0.006362,0.972368,-0.233363,1,11.978941,99.954262,40.060729,31,37,31,33.0,9,49.437491,-0.082123,0.000000,0
92,4.610000,-83.633395,40.148568,0.317090,13.799540,0.004961,0.006303,0.378937,0.012125,-0.004521,-2.651604,0.000722,0.006430,0.970115,-0.242559,1,11.836045,99.795418,39.959232,67,69,75,70.33333333333333,9,49.433141,-0.081509,0.000000,0
93,4.660000,-84.240051,39.819268,0.317132,13.815529,0.003966,0.002471,0.372812,0.012231,-0.004529,-2.632921,0.000653,0.006489,0.967807,-0.251611,2,10.857925,99.956284,39.796786,32,36,31,33.0,9,49.429698,-0.079640,0.000000,0
94,4.710000,-84.841379,39.478405,0.316997,13.823421,0.000641,0.003178,0.372413,0.012196,-0.004671,-2.614347,0.000666,0.006496,0.965428,-0.260588,2,11.759249,99.997551,39.705676,37,38,36,37.0,9,49.433267,-0.079546,0.000000,0
95,4.760000,-85.435349,39.126980,0.317204,13.797397,-0.001487,0.008440,0.374407,0.012018,-0.004523,-2.595800,0.000558,0.006396,0.962971,-0.269529,2,11.765342,99.989082,39.695730,66,64,64,64.66666666666667,9,49.434510,-0.080818,0.000000,0
96,4.810000,-86.022370,38.764760,0.317409,13.796729,0.003155,0.006549,0.382577,0.011934,-0.004384,-2.576915,0.000443,0.006341,0.960383,-0.278610,2,13.163223,99.972000,39.598807,35,40,33,36.0,9,49.433893,-0.082722,0.000000,0
97,4.860000,-86.603568,38.390867,0.317200,13.831581,0.012507,-0.000047,0.391192,0.012284,-0.004567,-2.557516,0.000418,0.006539,0.957634,-0.287912,2,11.986158,99.819916,39.517674,30,34,29,31.0,9,49.433528,-0.083215,0.000000,0
98,4.910000,-87.176702,38.006036,0.317250,13.799834,0.007530,0.007293,0.379453,0.012722,-0.004526,-2.538398,0.000271,0.006746,0.954837,-0.297053,2,12.080833,99.920074,39.398121,84,80,75,79.66666666666667,9,49.435220,-0.081519,0.000000,0
99,4.960000,-87.742123,37.610484,0.317329,13.805638,-0.001751,0.004621,0.370376,0.012623,-0.004471,-2.519690,0.000197,0.006693,0.952017,-0.305971,2,12.304589,99.980919,39.287176,74,72,72,72.66666666666667,9,49.433342,-0.079501,0.000000,0
100,5.010000,-88.300267,37.204170,0.317281,13.815440,-0.005851,0.002293,0.367532,0.012254,-0.004512,-2.501391,0.000213,0.006526,0.949179,-0.314668,2,12.542513,99.939636,39.219122,70,68,70,69.33333333333333,9,49.429601,-0.078680,0.000000,0
101,5.060000,-88.851601,36.787431,0.317076,13.813062,-0.005337,0.005020,0.370079,0.011823,-0.004641,-2.482950,0.000284,0.006344,0.946238,-0.323408,2,12.805321,99.999611,39.147663,26,29,29,28.0,9,49.438492,-0.079765,0.000000,0
102,5.110000,-89.394213,36.361275,0.317206,13.797622,-0.001715,0.007547,0.374105,0.011542,-0.004484,-2.464408,0.000198,0.006188,0.943201,-0.332166,2,13.109418,98.582962,38.925157,18,21,21,20.0,9,49.433981,-0.080668,0.000000,0
103,5.160000,-89.929045,35.924936,0.317198,13.820732,0.006511,0.001207,0.376075,0.011573,-0.004462,-2.445735,0.000124,0.006200,0.940058,-0.340957,2,13.638552,99.407539,38.820165,19,23,22,21.333333333333332,9,49.429693,-0.080064,0.000000,0
104,5.210000,-90.456660,35.477945,0.316932,13.826569,0.007306,0.002233,0.365555,0.011889,-0.004674,-2.427228,0.000111,0.006386,0.936862,-0.349642,2,13.907897,99.896446,38.745235,20,24,22,22.0,9,49.438957,-0.078042,0.000000,0
105,5.260000,-90.975346,35.021789,0.317005,13.807976,-0.001730,0.007261,0.358411,0.011877,-0.004619,-2.409235,0.000030,0.006372,0.933678,-0.358056,2,14.398032,99.891594,38.682972,38,43,35,38.666666666666664,9,49.435188,-0.077010,0.000000,0
106,5.310000,-91.485387,34.556705,0.317198,13.806100,-0.005109,0.006577,0.358374,0.011534,-0.004476,-2.391392,-0.000030,0.006186,0.930448,-0.366371,2,14.764431,99.958885,38.603891,53,59,44,52.0,9,49.433898,-0.077187,0.000000,0
107,5.360000,-91.988018,34.081939,0.317055,13.837999,0.003673,0.000271,0.369840,0.011389,-0.004606,-2.373179,0.000001,0.006142,0.927074,-0.374829,2,15.209708,98.203270,38.405797,41,47,38,42.0,9,49.433216,-0.078765,0.000000,0
108,5.410000,-92.481643,33.598333,0.317092,13.805153,0.007014,0.008601,0.369965,0.011601,-0.004579,-2.354750,-0.000109,0.006235,0.923580,-0.383356,2,15.929039,98.748634,38.309421,39,48,38,41.666666666666664,9,49.437319,-0.079951,0.000000,0
109,5.460000,-92.965412,33.106329,0.317344,13.802618,0.004708,0.007137,0.368155,0.011792,-0.004379,-2.336322,-0.000296,0.006283,0.920008,-0.391848,2,16.603354,99.280296,38.158503,42,46,40,42.666666666666664,9,49.433633,-0.079097,0.000000,0
110,5.510000,-93.440479,32.604875,0.317291,13.828098,0.002885,0.000305,0.358510,0.011876,-0.004435,-2.318233,-0.000344,0.006329,0.916426,-0.400154,2,16.840889,99.852150,38.117011,32,40,31,34.333333333333336,9,49.431451,-0.076094,0.000000,0
111,5.560000,-93.907005,32.094397,0.317067,13.824197,-0.006047,0.002828,0.345115,0.011667,-0.004623,-2.300729,-0.000271,0.006269,0.912889,-0.408159,2,14.810220,99.922623,38.043667,29,36,29,31.333333333333332,9,49.437422,-0.074025,0.000000,0
112,5.610000,-94.363927,31.576747,0.317162,13.804381,-0.011391,0.007144,0.351886,0.011003,-0.004519,-2.283426,-0.000234,0.005942,0.909326,-0.416041,2,9.837307,99.903778,38.051481,33,36,30,33.0,9,49.434683,-0.076022,0.000000,0
113,5.660000,-94.811976,31.051035,0.317119,13.828340,0.004154,0.001417,0.358198,0.010664,-0.004502,-2.265651,-0.000223,0.005783,0.905594,-0.424107,2,18.601738,99.869049,38.020897,33,39,32,34.666666666666664,9,49.430778,-0.076811,0.000000,0
114,5.710000,-95.251472,30.516733,0.316857,13.839724,0.011236,0.000747,0.363261,0.010950,-0.004684,-2.247604,-0.000255,0.005949,0.901729,-0.432261,2,19.357695,99.988197,38.061813,34,39,32,35.0,9,49.434433,-0.077268,0.000000,0
115,5.760000,-95.680803,29.974853,0.316880,13.818444,0.006604,0.006859,0.346716,0.011380,-0.004661,-2.229937,-0.000412,0.006135,0.897874,-0.440209,2,14.286395,99.834900,38.083137,20,22,22,21.333333333333332,8,49.435951,-0.074257,0.000000,0
116,5.810000,-96.100097,29.426060,0.317115,13.812297,-0.005046,0.007334,0.341920,0.011199,-0.004481,-2.212832,-0.000505,0.006010,0.894077,-0.447872,2,18.284042,99.933716,37.945820,35,40,32,35.666666666666664,8,49.434246,-0.073423,0.000000,0
117,5.860000,-96.510553,28.869456,0.317057,13.841217,-0.002226,0.000646,0.341482,0.010915,-0.004549,-2.195760,-0.000461,0.005895,0.890222,-0.455488,2,17.213432,99.967850,37.942721,47,55,43,48.333333333333336,8,49.433161,-0.072541,0.000000,0
118,5.910000,-96.911673,28.305867,0.317003,13.822721,-0.002986,0.005931,0.342632,0.010652,-0.004605,-2.178728,-0.000425,0.005787,0.886312,-0.463052,2,17.083910,99.982353,37.942577,41,48,36,41.666666666666664,8,49.438601,-0.073884,0.000000,0
119,5.960000,-97.302438,27.736253,0.317199,13.808935,-0.000160,0.008166,0.347353,0.010532,-0.004434,-2.161517,-0.000522,0.005690,0.882295,-0.470662,2,16.532011,99.967171,37.782335,37,45,38,40.0,8,49.435284,-0.074942,0.000000,0
120,6.010000,-97.683864,27.159545,0.317136,13.838466,0.008943,0.000949,0.357981,0.010673,-0.004473,-2.143863,-0.000589,0.005756,0.878106,-0.478432,2,15.914175,99.967384,37.751882,45,57,41,47.666666666666664,8,49.433131,-0.076046,0.000000,0
121,6.060000,-98.055258,26.575762,0.316992,13.832465,0.010984,0.003237,0.348282,0.011188,-0.004602,-2.126236,-0.000708,0.006007,0.873853,-0.486152,2,15.420994,99.870827,37.616872,34,36,32,34.0,8,49.439058,-0.074416,0.000000,0
122,6.110000,-98.415799,25.986020,0.317085,13.819936,-0.001779,0.006151,0.335374,0.011296,-0.004546,-2.109235,-0.000811,0.006034,0.869689,-0.493563,2,14.854929,99.880318,37.565678,32,37,31,33.333333333333336,8,49.435147,-0.071826,0.000000,0
123,6.160000,-98.766103,25.390548,0.317215,13.823202,-0.010017,0.004287,0.331764,0.010772,-0.004433,-2.092685,0.000778,-0.005772,-0.865577,0.500742,2,14.348284,99.992332,37.408726,41,45,35,40.333333333333336,8,49.430417,-0.070837,0.000000,0
124,6.210000,-99.107108,24.788523,0.317037,13.844542,-0.003436,-0.000055,0.336060,0.010366,-0.004566,-2.076072,0.000666,-0.005624,-0.861389,0.507915,2,13.896021,99.938011,37.346442,24,27,26,25.666666666666668,8,49.433617,-0.071679,0.000000,0
125,6.260000,-99.437984,24.181164,0.317007,13.826543,0.000569,0.004929,0.341128,0.010269,-0.004582,-2.059298,0.000681,-0.005581,-0.857099,0.515121,2,13.436856,99.928970,37.288786,33,34,32,33.0,8,49.432051,-0.073372,0.000000,0
126,6.310000,-99.758343,23.568728,0.317095,13.830827,0.006427,0.003912,0.341218,0.010344,-0.004485,-2.042301,0.000790,-0.005582,-0.852690,0.522387,2,13.012194,99.991920,37.090484,35,37,33,35.0,8,49.431848,-0.072918,0.000000,0
127,6.360000,-100.068658,22.950329,0.316995,13.841483,0.006522,0.001684,0.335212,0.010581,-0.004553,-2.025420,0.000871,-0.005693,-0.848250,0.529565,2,12.609385,99.960457,36.942356,38,42,33,37.666666666666664,8,49.434126,-0.071049,0.000000,0
128,6.410000,-100.368622,22.326753,0.316938,13.837317,-0.000005,0.003200,0.328992,0.010612,-0.004614,-2.008918,0.000900,-0.005715,-0.843851,0.536546,2,12.259638,99.972900,36.734266,33,39,28,33.333333333333336,8,49.433517,-0.070286,0.000000,0
129,6.460000,-100.657732,21.699127,0.317151,13.813719,-0.003108,0.007921,0.331052,0.010381,-0.004455,-1.992557,0.000951,-0.005568,-0.839435,0.543431,1,11.937458,99.982681,36.561244,40,45,34,39.666666666666664,8,49.435254,-0.071858,0.000000,0
130,6.510000,-100.936917,21.066390,0.317131,13.840611,0.004984,0.001581,0.348189,0.010291,-0.004466,-1.975517,0.000969,-0.005525,-0.834775,0.550563,1,11.676927,99.988571,36.481614,49,46,42,45.666666666666664,8,49.433281,-0.074151,0.000000,0
131,6.560000,-101.205569,20.428606,0.317010,13.842393,0.013335,0.001704,0.357259,0.010729,-0.004576,-1.957930,0.001094,-0.005728,-0.829899,0.557883,1,11.607606,99.995338,36.320835,35,38,33,35.333333333333336,8,49.434402,-0.076072,0.000000,0
132,6.610000,-101.462411,19.786715,0.317116,13.818013,0.010202,0.006957,0.345980,0.011316,-0.004526,-1.940411,0.001331,-0.005947,-0.824979,0.565130,1,11.296165,99.996719,36.090447,46,48,44,46.0,8,49.435979,-0.074330,0.000000,0
133,6.660000,-101.707615,19.140826,0.317282,13.824172,-0.002897,0.004421,0.334154,0.011322,-0.004409,-1.923510,0.001431,-0.005904,-0.820174,0.572081,1,12.713836,99.974396,35.946837,56,68,50,58.0,8,49.431165,-0.071036,0.000000,0
134,6.710000,-101.942250,18.490055,0.317143,13.841376,-0.010036,0.000404,0.322588,0.010846,-0.004517,-1.907178,0.001297,-0.005730,-0.815477,0.578760,1,11.389553,99.984116,35.815655,51,56,44,50.333333333333336,8,49.433704,-0.068367,0.000000,0
135,6.760000,-102.166272,17.835625,0.317054,13.831369,-0.009061,0.003229,0.322018,0.010174,-0.004576,-1.891231,0.001122,-0.005464,-0.810838,0.585244,1,11.414226,99.968315,35.572852,49,61,44,51.333333333333336,8,49.431739,-0.069804,0.000000,0
136,6.810000,-102.379805,17.178099,0.317079,13.833426,0.000766,0.003375,0.337828,0.009753,-0.004519,-1.874778,0.001065,-0.005268,-0.805997,0.591895,1,11.419271,99.990280,35.440723,46,56,42,48.0,8,49.431396,-0.072718,0.000000,0
137,6.860000,-102.582857,16.516433,0.316937,13.843352,0.013093,0.002532,0.348717,0.010107,-0.004589,-1.857617,0.001189,-0.005421,-0.800888,0.598789,1,10.338522,99.997253,35.299657,29,33,29,30.333333333333332,8,49.435083,-0.074204,0.000000,0
138,6.910000,-102.774546,15.851453,0.316895,13.842391,0.013767,0.003104,0.339911,0.010756,-0.004617,-1.840415,0.001420,-0.005678,-0.795706,0.605655,1,11.256582,99.845612,35.235866,39,40,38,39.0,8,49.434398,-0.072137,0.000000,0
139,6.960000,-102.954400,15.183963,0.317092,13.821588,-0.000067,0.006815,0.328897,0.010948,-0.004494,-1.823864,0.001575,-0.005704,-0.790667,0.612218,1,11.411717,98.701591,35.079221,39,44,35,39.333333333333336,8,49.434950,-0.070654,0.000000,0
140,7.010000,-103.123138,14.513527,0.317191,13.834982,-0.007344,0.002944,0.324704,0.010567,-0.004427,-1.807595,0.001529,-0.005520,-0.785662,0.618630,1,11.821273,98.032654,34.963893,40,45,34,39.666666666666664,8,49.432334,-0.068904,0.000000,0
141,7.060000,-103.281239,13.839782,0.317079,13.844319,-0.004374,0.001044,0.330299,0.010207,-0.004521,-1.791372,0.001425,-0.005396,-0.780619,0.624983,1,6.038755,97.328850,34.937548,47,56,36,46.333333333333336,8,49.433912,-0.070421,0.000000,0
142,7.110000,-103.428244,13.164166,0.317158,13.814843,0.004193,0.007185,0.336029,0.010142,-0.004472,-1.774797,0.001468,-0.005344,-0.775413,0.631431,1,12.414664,96.660500,34.897606,37,40,35,37.333333333333336,7,49.436694,-0.073421,0.000000,0
143,7.160000,-103.563940,12.486314,0.317193,13.833356,0.007639,0.002649,0.345122,0.010339,-0.004443,-1.757691,0.001588,-0.005398,-0.769983,0.638039,1,12.342891,99.852753,34.842841,43,46,39,42.666666666666664,7,49.432216,-0.073452,0.000000,0
144,7.210000,-103.688219,11.805696,0.317058,13.839279,0.008825,0.001874,0.337402,0.010678,-0.004529,-1.740657,0.001710,-0.005542,-0.764520,0.644574,1,12.081358,99.364677,34.847546,34,37,33,34.666666666666664,7,49.434534,-0.071469,0.000000,0
145,7.260000,-103.800708,11.123008,0.316970,13.834799,-0.002842,0.003104,0.314857,0.010758,-0.004596,-1.724431,0.001755,-0.005580,-0.759265,0.650755,1,11.892124,94.588058,34.777749,40,46,35,40.333333333333336,7,49.435960,-0.067192,0.000000,0
146,7.310000,-103.901994,10.438891,0.317007,13.835490,-0.012971,0.003298,0.303982,0.010130,-0.004569,-1.709143,0.001602,-0.005320,-0.754270,0.656541,1,11.664223,97.483437,34.769014,48,54,42,48.0,7,49.431758,-0.065301,0.000000,0
147,7.360000,-103.992975,9.752710,0.316939,13.847023,-0.009933,0.002405,0.295652,0.009460,-0.004601,-1.694201,0.001408,-0.005068,-0.749346,0.662158,1,11.540805,99.704445,34.706953,35,37,35,35.666666666666664,7,49.434297,-0.062934,0.000000,0
148,7.410000,-104.073931,9.064827,0.316863,13.851703,-0.007774,0.002759,0.285283,0.009010,-0.004638,-1.679801,0.001281,-0.004902,-0.744560,0.667536,1,11.424573,95.701797,34.657978,40,44,38,40.666666666666664,7,49.434929,-0.060792,0.000000,0
149,7.460000,-104.145076,8.375862,0.316881,13.854714,-0.009081,0.002855,0.268175,0.008539,-0.004616,-1.666058,0.001164,-0.004712,-0.739957,0.672637,1,11.386083,97.428314,34.587695,56,65,46,55.666666666666664,7,49.434284,-0.057080,0.000000,0
150,7.510000,-104.206713,7.685130,0.316767,13.879723,-0.028957,-0.000955,0.161226,0.007656,-0.004687,-1.654964,0.000865,-0.004404,-0.736216,0.676732,1,11.373979,96.372765,34.520137,34,38,32,34.666666666666664,7,49.433120,-0.027916,0.000000,0
151,7.560000,-104.261091,6.993002,0.316623,13.890890,-0.070459,-0.000795,0.044437,0.005085,-0.004747,-1.650667,-0.000020,-0.003478,-0.734765,0.678312,1,11.322541,99.969925,34.553790,40,45,38,41.0,7,49.432309,-0.008330,0.000000,0
152,7.610000,-104.313797,6.300408,0.316572,13.888531,-0.086964,0.001975,0.009912,0.000738,-0.004726,-1.649670,-0.001485,-0.001875,-0.734433,0.678677,1,11.281718,99.966866,34.701596,43,48,39,43.333333333333336,7,49.435563,-0.001777,0.000000,0
153,7.660000,-104.367180,5.608078,0.316696,13.887879,-0.034423,0.002565,0.011491,-0.002279,-0.004599,-1.649287,-0.002462,-0.000724,-0.734305,0.678815,1,11.220328,99.367615,34.606498,44,49,40,44.333333333333336,7,49.434820,-0.002688,0.000000,0
154,7.710000,-104.421756,4.915806,0.316848,13.888281,0.029017,0.001925,0.037926,-0.002037,-0.004487,-1.648090,-0.002338,-0.000777,-0.733899,0.679254,1,11.174501,98.620209,34.599967,45,50,40,45.0,7,49.435090,-0.008480,0.000000,0
155,7.760000,-104.475983,4.223564,0.316986,13.886786,0.044293,0.001123,0.063784,0.000041,-0.004410,-1.645443,-0.001602,-0.001515,-0.732998,0.680227,1,11.229062,97.837563,34.571668,46,50,41,45.666666666666664,7,49.435088,-0.013785,0.000000,0
156,7.810000,-104.527853,3.531193,0.317066,13.885866,0.034770,0.000216,0.081617,0.001919,-0.004387,-1.641717,-0.000951,-0.002197,-0.731728,0.681593,1,11.332556,98.234978,34.560510,42,47,39,42.666666666666664,6,49.435162,-0.017638,0.000000,0
157,7.860000,-104.576555,2.838641,0.317085,13.884990,0.029802,-0.000260,0.087944,0.003503,-0.004404,-1.637428,-0.000411,-0.002783,-0.730262,0.683161,1,11.503725,99.883781,34.489498,50,59,44,51.0,6,49.435127,-0.018883,0.000000,0
158,7.910000,-104.621860,2.145884,0.317057,13.884782,0.005444,-0.000500,0.086779,0.004343,-0.004442,-1.633056,-0.000132,-0.003103,-0.728766,0.684756,1,11.494566,99.978600,34.406036,55,66,49,56.666666666666664,6,49.435014,-0.018437,0.000000,0
159,7.960000,-104.663575,1.452893,0.316997,13.885105,-0.022829,-0.000543,0.081001,0.003661,-0.004487,-1.628876,-0.000375,-0.002871,-0.727334,0.686277,1,11.692496,99.953979,34.486419,57,70,50,59.0,7,49.434979,-0.017249,0.000000,0
160,8.010000,-104.702231,0.759707,0.316936,13.885420,-0.015760,-0.000253,0.076014,0.002559,-0.004518,-1.624991,-0.000760,-0.002483,-0.726001,0.687689,1,12.010622,97.719254,34.441317,55,67,50,57.333333333333336,7,49.434981,-0.016332,0.000000,0
161,8.060000,-104.738572,0.066383,0.316895,13.885643,-0.000131,0.000125,0.072895,0.002287,-0.004528,-1.621309,-0.000853,-0.002389,-0.724734,0.689024,1,12.255969,96.904457,34.401570,46,54,43,47.666666666666664,9,49.434970,-0.015536,0.000000,0
162,8.110000,-104.772545,-0.627074,0.316877,13.885902,-0.006999,0.000279,0.070856,0.002105,-0.004524,-1.617738,-0.000910,-0.002323,-0.723503,0.690317,1,12.645821,96.491791,34.417968,49,58,44,50.333333333333336,10,49.434962,-0.015033,0.000000,0
163,8.160000,-104.803999,-1.320658,0.316878,13.885978,-0.004388,0.000358,0.071550,0.001690,-0.004515,-1.614198,-0.001046,-0.002171,-0.722280,0.691596,1,12.899401,95.814491,34.381523,60,74,53,62.333333333333336,10,49.435004,-0.015367,0.000000,0
164,8.210000,-104.833160,-2.014341,0.316898,13.885925,0.012575,0.000428,0.070282,0.001985,-0.004501,-1.610667,-0.000935,-0.002275,-0.721058,0.692870,1,13.328238,96.335480,34.453673,62,76,54,64.0,10,49.435004,-0.015023,0.000000,0
165,8.260000,-104.860021,-2.708116,0.316922,13.885983,0.005281,0.000325,0.068081,0.002493,-0.004490,-1.607229,-0.000751,-0.002456,-0.719865,0.694109,1,13.470431,97.263023,34.426150,61,74,54,63.0,10,49.434981,-0.014403,0.000000,0
166,8.310000,-104.884257,-3.401995,0.316937,13.886125,-0.010329,0.000141,0.064417,0.002206,-0.004487,-1.603932,-0.000845,-0.002353,-0.718720,0.695295,1,13.181453,96.759819,34.430681,59,72,53,61.333333333333336,10,49.435000,-0.013706,0.000000,0
167,8.360000,-104.906152,-4.095957,0.316944,13.886197,-0.001086,0.000089,0.061214,0.001858,-0.004488,-1.600821,-0.000963,-0.002230,-0.717638,0.696412,1,12.798787,96.127159,34.423512,54,66,49,56.333333333333336,10,49.435012,-0.013131,0.000000,0
168,8.410000,-104.926136,-4.789980,0.316945,13.886261,0.005053,0.000087,0.057715,0.002070,-0.004490,-1.597876,-0.000887,-0.002307,-0.716612,0.697468,1,12.410145,96.435074,34.355976,48,57,44,49.666666666666664,10,49.435003,-0.012234,0.000000,0
169,8.460000,-104.944088,-5.484064,0.316938,13.886409,-0.008658,0.000015,0.055866,0.001907,-0.004493,-1.595059,-0.000942,-0.002252,-0.715629,0.698476,1,12.015756,96.060333,34.393150,40,45,38,41.0,10,49.435002,-0.011849,0.000000,0
170,8.510000,-104.959927,-6.178205,0.316928,13.886483,-0.006556,0.000016,0.052226,0.001415,-0.004497,-1.592370,-0.001112,-0.002078,-0.714690,0.699438,1,11.694046,95.083534,34.363521,36,39,35,36.666666666666664,10,49.435019,-0.011185,0.000000,0
171,8.560000,-104.974151,-6.872385,0.316921,13.886519,0.008025,0.000093,0.051844,0.001527,-0.004498,-1.589801,-0.001071,-0.002120,-0.713791,0.700355,1,11.366334,99.937202,34.447753,35,42,34,37.0,10,49.435023,-0.011099,0.000000,0
172,8.610000,-104.986755,-7.566595,0.316919,13.886522,0.001595,0.000104,0.052852,0.001809,-0.004497,-1.587195,-0.000969,-0.002222,-0.712877,0.701285,1,11.025273,99.245827,34.391584,27,33,28,29.333333333333332,10,49.435010,-0.011212,0.000000,0
173,8.660000,-104.997328,-8.260841,0.316917,13.886563,-0.007242,0.000075,0.052039,0.001532,-0.004497,-1.584572,-0.001063,-0.002124,-0.711957,0.702219,1,10.877259,98.549965,34.437281,30,37,30,32.333333333333336,10,49.435025,-0.011126,0.000000,0
174,8.710000,-105.006044,-8.955114,0.316919,13.886616,0.004018,0.000101,0.048000,0.001456,-0.004497,-1.582087,-0.001087,-0.002098,-0.711084,0.703103,2,10.624645,97.859184,34.429788,38,45,35,39.333333333333336,10,49.435019,-0.010267,0.000000,0
175,8.760000,-105.013235,-9.649410,0.316923,13.886735,0.003852,0.000098,0.042777,0.001751,-0.004495,-1.579847,-0.000980,-0.002204,-0.710296,0.703899,2,10.495116,97.163498,34.406175,38,43,35,38.666666666666664,10,49.435007,-0.008991,0.000000,0
176,8.810000,-105.018787,-10.343730,0.316924,13.886903,-0.012195,0.000031,0.037219,0.001443,-0.004495,-1.577871,-0.001087,-0.002096,-0.709600,0.704600,2,10.386249,96.473846,34.455679,38,42,34,38.0,10,49.435012,-0.007827,0.000000,0
177,8.860000,-105.022879,-11.038065,0.316923,13.886992,-0.007786,0.000019,0.031801,0.000846,-0.004496,-1.576173,-0.001295,-0.001885,-0.709002,0.705202,2,10.509686,95.778412,34.405222,54,59,46,53.0,10,49.435025,-0.006808,0.000000,0
178,8.910000,-105.026070,-11.732410,0.316922,13.887081,0.004806,0.000039,0.027036,0.000885,-0.004496,-1.574735,-0.001280,-0.001900,-0.708495,0.705712,2,10.499475,95.083580,34.430466,60,63,51,58.0,10,49.435028,-0.005705,0.000000,0
179,8.960000,-105.028458,-12.426761,0.316921,13.887133,-0.003705,0.000025,0.026509,0.000920,-0.004495,-1.573420,-0.001267,-0.001913,-0.708031,0.706177,2,10.556075,95.528236,34.469394,80,75,69,74.66666666666667,10,49.435028,-0.005573,0.000000,0
180,9.010000,-105.029771,-13.121117,0.316920,13.887145,-0.007570,0.000013,0.024562,0.000527,-0.004496,-1.572143,-0.001404,-0.001775,-0.707581,0.706629,2,10.792768,99.768478,34.453917,71,67,61,66.33333333333333,10,49.435040,-0.005257,0.000000,0
181,9.060000,-105.030325,-13.815474,0.316920,13.887154,0.006907,0.000031,0.025118,0.000542,-0.004495,-1.570920,-0.001398,-0.001781,-0.707148,0.707062,2,10.056838,99.790092,34.483247,71,66,61,66.0,9,49.435041,-0.005437,0.000000,0
182,9.110000,-105.030188,-14.509831,0.316921,13.887154,0.005837,0.000034,0.022810,0.000975,-0.004494,-1.569725,-0.001243,-0.001934,-0.706725,0.707484,2,11.348794,99.987587,34.474395,70,66,61,65.66666666666667,9,49.435033,-0.004747,0.000000,0
183,9.160000,-105.029097,-15.204189,0.316921,13.887199,-0.008534,0.000005,0.022404,0.000786,-0.004494,-1.568605,-0.001309,-0.001868,-0.706329,0.707880,2,10.852239,99.421852,34.508182,64,61,56,60.333333333333336,9,49.435038,-0.004760,0.000000,0
184,9.210000,-105.027107,-15.898546,0.316921,13.887198,-0.001523,0.000008,0.020396,0.000479,-0.004495,-1.567539,-0.001417,-0.001761,-0.705952,0.708256,2,11.456787,99.947891,34.535317,60,57,53,56.666666666666664,9,49.435040,-0.004414,0.000000,0
185,9.260000,-105.024588,-16.592902,0.316922,13.887208,0.006947,0.000023,0.018695,0.000725,-0.004494,-1.566580,-0.001329,-0.001848,-0.705612,0.708595,2,11.755535,99.658432,34.609073,55,53,49,52.333333333333336,9,49.435040,-0.003948,0.000000,0
186,9.310000,-105.021413,-17.287256,0.316922,13.887256,-0.005394,0.000003,0.015867,0.000753,-0.004494,-1.565722,-0.001318,-0.001859,-0.705308,0.708897,2,11.949949,99.868164,34.583334,48,47,44,46.333333333333336,9,49.435034,-0.003270,0.000000,0
187,9.360000,-105.017414,-17.981607,0.316921,13.887267,-0.009810,-0.000004,0.008079,0.000272,-0.004495,-1.565131,-0.001488,-0.001689,-0.705099,0.709105,2,12.097938,99.997658,34.577561,46,46,42,44.666666666666664,9,49.435037,-0.001662,0.000000,0
188,9.410000,-105.013091,-18.675960,0.316920,13.887347,-0.000388,-0.000009,-0.005423,0.000100,-0.004495,-1.565099,-0.001549,-0.001629,-0.705088,0.709116,2,12.252783,99.988655,34.572495,45,45,42,44.0,9,49.435027,0.001330,0.000000,0
189,9.460000,-105.009064,-19.370315,0.316919,13.887322,-0.006960,0.000009,-0.013142,-0.000038,-0.004495,-1.565621,-0.001599,-0.001580,-0.705273,0.708933,2,12.380324,99.843506,34.568411,47,47,43,45.666666666666664,8,49.435051,0.002996,0.000000,0
190,9.510000,-105.005471,-20.064670,0.316920,13.887278,-0.013860,0.000029,-0.011852,-0.000684,-0.004494,-1.566269,-0.001828,-0.001351,-0.705503,0.708703,2,12.504842,99.859802,34.610711,53,52,48,51.0,8,49.435045,0.002493,0.000000,0
191,9.560000,-105.002414,-20.759028,0.316921,13.887311,0.003541,0.000009,-0.008617,-0.000924,-0.004494,-1.566772,-0.001913,-0.001266,-0.705681,0.708526,2,12.755852,99.879044,34.586874,56,53,50,53.0,8,49.435036,0.001709,0.000000,0
192,9.610000,-104.999973,-21.453389,0.316922,13.887304,0.013752,0.000000,-0.005202,-0.000332,-0.004494,-1.567109,-0.001703,-0.001475,-0.705800,0.708407,2,13.003440,99.944885,34.662562,57,55,51,54.333333333333336,8,49.435045,0.001119,0.000000,0
193,9.660000,-104.997675,-22.147751,0.316922,13.887328,0.000018,-0.000006,-0.003622,-0.000010,-0.004494,-1.567310,-0.001590,-0.001588,-0.705871,0.708336,2,13.306623,99.452225,34.555088,58,55,51,54.666666666666664,8,49.435041,0.000834,0.000000,0
194,9.710000,-104.995274,-22.842113,0.316921,13.887323,-0.002307,-0.000002,-0.002034,-0.000186,-0.004494,-1.567443,-0.001652,-0.001526,-0.705919,0.708289,2,8.746680,99.558289,34.510616,58,56,52,55.333333333333336,8,49.435044,0.000342,0.000000,0
195,9.760000,-104.993003,-23.536476,0.316921,13.887332,0.007933,-0.000004,-0.003014,0.000042,-0.004495,-1.567566,-0.001572,-0.001606,-0.705962,0.708246,2,12.973586,99.973373,34.504262,59,56,52,55.666666666666664,8,49.435044,0.000637,0.000000,0
196,9.810000,-104.990867,-24.230839,0.316921,13.887329,-0.001464,-0.000001,-0.005520,0.000251,-0.004495,-1.567783,-0.001498,-0.001680,-0.706039,0.708170,2,12.695964,99.753281,34.517460,60,57,53,56.666666666666664,8,49.435043,0.001301,0.000000,0
197,9.860000,-104.988689,-24.925202,0.316921,13.887301,-0.011908,0.000011,-0.008090,-0.000210,-0.004494,-1.568127,-0.001661,-0.001517,-0.706161,0.708048,2,12.848837,99.970970,34.440689,62,58,54,58.0,8,49.435047,0.001741,0.000000,0
198,9.910000,-104.986793,-25.619564,0.316921,13.887313,0.000337,0.000000,-0.008927,-0.000498,-0.004494,-1.568564,-0.001763,-0.001415,-0.706316,0.707893,2,12.996449,99.722404,34.418293,63,60,55,59.333333333333336,8,49.435040,0.001835,0.000000,0
199,9.960000,-104.985486,-26.313928,0.316921,13.887302,0.006405,-0.000001,-0.005926,-0.000215,-0.004494,-1.568942,-0.001664,-0.001514,-0.706449,0.707760,2,13.552985,99.959427,34.377993,64,61,56,60.333333333333336,8,49.435045,0.001270,0.000000,0
200,10.010000,-104.984354,-27.008293,0.316921,13.887326,-0.003998,-0.000001,-0.004856,-0.000189,-0.004495,-1.569192,-0.001655,-0.001524,-0.706538,0.707672,2,13.748195,99.896996,34.275206,65,61,57,61.0,8,49.435043,0.001075,0.000000,0
201,10.060000,-104.983273,-27.702659,0.316921,13.887331,-0.000125,0.000001,-0.001743,-0.000376,-0.004495,-1.569353,-0.001721,-0.001457,-0.706595,0.707615,2,12.966379,99.987907,34.159676,66,62,57,61.666666666666664,8,49.435042,0.000247,0.000000,0
202,10.110000,-104.982397,-28.397025,0.316921,13.887331,0.010281,0.000003,-0.001643,-0.000005,-0.004494,-1.569427,-0.001590,-0.001588,-0.706621,0.707589,2,12.808246,99.995186,34.167919,66,62,57,61.666666666666664,8,49.435046,0.000357,0.000000,0
203,10.160000,-104.981601,-29.091391,0.316921,13.887332,-0.000431,0.000001,-0.000810,0.000252,-0.004494,-1.569489,-0.001499,-0.001679,-0.706642,0.707567,2,13.234838,99.995415,34.043809,66,62,57,61.666666666666664,8,49.435042,0.000239,0.000000,0
204,10.210000,-104.980586,-29.785756,0.316921,13.887315,-0.008297,0.000005,-0.003524,-0.000073,-0.004494,-1.569587,-0.001614,-0.001564,-0.706677,0.707533,2,13.503085,99.992729,33.994132,66,62,58,62.0,8,49.435046,0.000761,0.000000,0
205,10.260000,-104.979670,-30.480122,0.316921,13.887330,0.001919,-0.000003,-0.006119,-0.000211,-0.004494,-1.569842,-0.001663,-0.001515,-0.706768,0.707442,2,13.375690,99.976265,33.776193,67,63,58,62.666666666666664,8,49.435042,0.001281,0.000000,0
206,10.310000,-104.979165,-31.174488,0.316921,13.887315,0.002444,-0.000001,-0.005219,-0.000019,-0.004494,-1.570139,-0.001595,-0.001583,-0.706872,0.707337,2,13.530231,99.981918,33.528713,71,67,61,66.33333333333333,8,49.435046,0.001159,0.000000,0
207,10.360000,-104.978797,-31.868854,0.316921,13.887332,-0.006588,0.000000,-0.002075,-0.000201,-0.004494,-1.570312,-0.001660,-0.001518,-0.706934,0.707276,2,13.171979,99.976364,33.243485,71,67,61,66.33333333333333,8,49.435043,0.000414,0.000000,0
208,10.410000,-104.978448,-32.563220,0.316921,13.887335,0.001935,0.000000,0.000144,-0.000351,-0.004494,-1.570346,-0.001713,-0.001465,-0.706946,0.707264,2,13.018013,99.991974,32.864891,71,67,61,66.33333333333333,8,49.435043,-0.000140,0.000000,0
209,10.460000,-104.978206,-33.257587,0.316921,13.887338,0.009211,0.000002,-0.004050,0.000069,-0.004494,-1.570437,-0.001564,-0.001614,-0.706978,0.707232,2,12.756469,99.992058,32.533433,71,67,61,66.33333333333333,8,49.435044,0.000964,0.000000,0
210,10.510000,-104.978066,-33.951954,0.316921,13.887330,-0.004608,0.000003,-0.004774,0.000148,-0.004494,-1.570676,-0.001537,-0.001641,-0.707062,0.707148,2,12.487240,99.997055,31.987334,72,67,62,67.0,8,49.435044,0.001098,0.000000,0
211,10.560000,-104.977900,-34.646320,0.316921,13.887310,-0.008262,0.000006,-0.005778,-0.000284,-0.004494,-1.570935,-0.001689,-0.001488,-0.707154,0.707056,2,12.351036,98.230797,31.606379,72,67,62,67.0,8,49.435046,0.001194,0.000000,0
212,10.610000,-104.978069,-35.340686,0.316921,13.887330,0.005739,-0.000004,-0.001914,-0.000307,-0.004494,-1.571137,-0.001698,-0.001480,-0.707226,0.706984,2,12.224125,98.322952,31.567868,72,68,62,67.33333333333333,8,49.435042,0.000292,0.000000,0
213,10.660000,-104.978478,-36.035052,0.316921,13.887328,0.004955,-0.000004,-0.002103,0.000074,-0.004494,-1.571220,-0.001563,-0.001615,-0.707255,0.706955,2,12.100781,99.885269,31.570274,72,68,62,67.33333333333333,8,49.435044,0.000537,0.000000,0
214,10.710000,-104.978794,-36.729419,0.316921,13.887329,-0.006400,-0.000001,-0.002045,-0.000061,-0.004494,-1.571321,-0.001611,-0.001567,-0.707291,0.706919,2,12.215138,99.991730,31.755496,73,68,62,67.66666666666667,8,49.435046,0.000444,0.000000,0
215,10.760000,-104.979119,-37.423785,0.316921,13.887335,0.001218,-0.000002,-0.000845,-0.000227,-0.004494,-1.571394,-0.001670,-0.001508,-0.707316,0.706893,2,12.131220,99.974709,32.048556,73,68,62,67.66666666666667,8,49.435043,0.000086,0.000000,0
216,10.810000,-104.979667,-38.118151,0.316921,13.887322,0.007864,0.000003,0.001310,0.000103,-0.004494,-1.571382,-0.001553,-0.001625,-0.707312,0.706898,2,12.461014,99.986580,32.121283,73,68,62,67.66666666666667,8,49.435047,-0.000283,0.000000,0
217,10.860000,-104.980139,-38.812517,0.316921,13.887337,-0.003018,-0.000001,0.001838,0.000205,-0.004494,-1.571291,-0.001517,-0.001661,-0.707280,0.706930,2,12.527833,99.469627,32.158605,73,68,62,67.66666666666667,8,49.435043,-0.000340,0.000000,0
218,10.910000,-104.980351,-39.506884,0.316921,13.887325,-0.004543,0.000002,0.000742,-0.000074,-0.004494,-1.571222,-0.001616,-0.001562,-0.707256,0.706954,2,12.790438,98.777321,32.163497,73,68,62,67.66666666666667,8,49.435046,-0.000201,0.000000,0
219,10.960000,-104.980578,-40.201251,0.316921,13.887340,0.004686,-0.000001,-0.003265,0.000007,-0.004494,-1.571293,-0.001587,-0.001591,-0.707280,0.706929,2,12.477719,98.333458,32.159013,73,68,62,67.66666666666667,8,49.435044,0.000736,0.000000,0
220,11.010000,-104.981035,-40.895617,0.316921,13.887327,-0.001112,0.000001,-0.001815,0.000118,-0.004494,-1.571439,-0.001548,-0.001630,-0.707332,0.706878,2,12.132089,97.383476,32.115651,73,68,62,67.66666666666667,8,49.435044,0.000426,0.000000,0
221,11.060000,-104.981455,-41.589983,0.316921,13.887332,-0.007061,0.000002,-0.000225,-0.000175,-0.004494,-1.571477,-0.001651,-0.001527,-0.707346,0.706864,2,11.921419,96.688789,32.065454,73,68,63,68.0,8,49.435046,0.000009,0.000000,0
222,11.110000,-104.981894,-42.284350,0.316921,13.887337,0.004192,-0.000001,0.001122,-0.000237,-0.004494,-1.571451,-0.001673,-0.001504,-0.707337,0.706873,2,11.676476,99.981918,32.186873,73,68,63,68.0,8,49.435044,-0.000326,0.000000,0
223,11.160000,-104.982510,-42.978716,0.316921,13.887313,0.008448,0.000004,0.004769,0.000174,-0.004494,-1.571304,-0.001528,-0.001650,-0.707284,0.706926,2,11.368546,99.613457,32.167529,73,68,62,67.66666666666667,8,49.435046,-0.001027,0.000000,0
224,11.210000,-104.982863,-43.673082,0.316921,13.887331,-0.003334,-0.000004,0.003513,0.000273,-0.004494,-1.571076,-0.001493,-0.001685,-0.707204,0.707006,2,11.281638,99.904495,32.342620,73,68,62,67.66666666666667,8,49.435044,-0.000676,0.000000,0
225,11.260000,-104.982910,-44.367448,0.316921,13.887327,-0.003083,-0.000002,0.003382,0.000017,-0.004494,-1.570911,-0.001583,-0.001595,-0.707145,0.707065,2,11.165332,99.975777,32.494796,72,68,62,67.33333333333333,8,49.435045,-0.000793,0.000000,0
226,11.310000,-104.982946,-45.061815,0.316921,13.887331,0.005625,0.000001,0.002154,0.000165,-0.004494,-1.570776,-0.001531,-0.001647,-0.707098,0.707112,2,10.957324,99.816246,32.539783,72,68,62,67.33333333333333,8,49.435046,-0.000448,0.000000,0
227,11.360000,-104.982954,-45.756181,0.316921,13.887335,-0.002206,0.000000,0.001664,0.000268,-0.004494,-1.570686,-0.001494,-0.001684,-0.707066,0.707144,2,11.179558,99.838486,32.741968,72,68,62,67.33333333333333,8,49.435044,-0.000283,0.000000,0
228,11.410000,-104.982746,-46.450548,0.316921,13.887327,-0.007491,0.000002,0.000787,-0.000070,-0.004494,-1.570622,-0.001614,-0.001564,-0.707044,0.707166,2,10.956859,99.986374,32.931414,72,67,62,67.0,8,49.435047,-0.000187,0.000000,0
229,11.460000,-104.982492,-47.144914,0.316921,13.887336,0.002325,-0.000001,-0.003931,-0.000155,-0.004494,-1.570705,-0.001644,-0.001534,-0.707073,0.707137,2,10.710297,99.925697,33.049133,72,68,62,67.33333333333333,8,49.435042,0.000864,0.000000,0
230,11.510000,-104.982550,-47.839281,0.316921,13.887323,0.002426,0.000001,-0.002704,0.000021,-0.004494,-1.570896,-0.001582,-0.001596,-0.707140,0.707070,2,10.534284,99.967781,33.115637,73,68,62,67.66666666666667,8,49.435046,0.000606,0.000000,0
231,11.560000,-104.982655,-48.533647,0.316921,13.887333,-0.005992,0.000001,-0.002134,-0.000121,-0.004494,-1.571004,-0.001632,-0.001546,-0.707179,0.707031,2,10.420439,99.912849,33.176414,73,68,62,67.66666666666667,8,49.435046,0.000474,0.000000,0
232,11.610000,-104.982759,-49.228014,0.316921,13.887333,0.000270,0.000000,-0.001178,-0.000308,-0.004494,-1.571085,-0.001698,-0.001480,-0.707207,0.707003,2,10.302067,99.313240,33.226515,73,68,62,67.66666666666667,8,49.435044,0.000168,0.000000,0
233,11.660000,-104.983048,-49.922381,0.316921,13.887333,0.007837,0.000001,-0.002287,0.000005,-0.004494,-1.571171,-0.001588,-0.001590,-0.707237,0.706973,2,10.239499,99.962349,33.374323,73,68,63,68.0,8,49.435047,0.000527,0.000000,0
234,11.710000,-104.983432,-50.616747,0.316921,13.887335,-0.002227,-0.000000,-0.000895,0.000128,-0.004494,-1.571255,-0.001544,-0.001634,-0.707267,0.706943,2,10.002573,99.961479,33.286311,73,68,63,68.0,8,49.435044,0.000231,0.000000,0
235,11.760000,-104.983738,-51.311114,0.316921,13.887339,-0.004104,0.000001,0.003636,-0.000139,-0.004494,-1.571178,-0.001638,-0.001539,-0.707240,0.706970,2,9.884912,99.980667,33.282046,73,68,63,68.0,8,49.435045,-0.000898,0.000000,0
236,11.810000,-104.983982,-52.005481,0.316921,13.887332,0.007655,0.000003,0.003951,0.000022,-0.004494,-1.570971,-0.001581,-0.001597,-0.707167,0.707043,2,9.737064,99.972427,33.209002,73,68,62,67.66666666666667,8,49.435046,-0.000881,0.000000,0
237,11.860000,-104.984204,-52.699847,0.316922,13.887316,0.004331,0.000003,0.005997,0.000376,-0.004494,-1.570727,-0.001456,-0.001722,-0.707080,0.707130,2,9.688354,99.996559,33.057024,72,67,62,67.0,8,49.435044,-0.001249,0.000000,0
238,11.910000,-104.984016,-53.394213,0.316921,13.887323,-0.007047,-0.000003,0.001712,0.000245,-0.004494,-1.570519,-0.001502,-0.001676,-0.707007,0.707203,2,9.689453,99.989616,33.133953,72,67,61,66.66666666666667,8,49.435044,-0.000282,0.000000,0
239,11.960000,-104.983668,-54.088579,0.316921,13.887334,-0.001963,-0.000005,0.001902,-0.000047,-0.004494,-1.570451,-0.001605,-0.001573,-0.706983,0.707227,2,9.648331,99.987473,33.106307,69,65,60,64.66666666666667,8,49.435044,-0.000492,0.000000,0
240,12.010000,-104.983391,-54.782946,0.316921,13.887339,0.003889,-0.000001,-0.002255,0.000121,-0.004494,-1.570458,-0.001546,-0.001632,-0.706985,0.707225,2,9.768374,99.988876,33.038795,69,65,60,64.66666666666667,8,49.435045,0.000578,0.000000,0
241,12.060000,-104.983191,-55.477313,0.316921,13.887337,-0.005825,0.000001,-0.001364,0.000026,-0.004494,-1.570567,-0.001580,-0.001598,-0.707024,0.707186,2,9.843514,99.982254,32.943998,70,65,60,65.0,8,49.435045,0.000318,0.000000,0
242,12.110000,-104.982976,-56.171679,0.316921,13.887335,-0.003700,0.000003,0.001169,-0.000288,-0.004494,-1.570564,-0.001691,-0.001487,-0.707023,0.707187,2,10.198751,99.978691,32.971571,70,65,60,65.0,8,49.435046,-0.000344,0.000000,0
243,12.160000,-104.982861,-56.866046,0.316921,13.887333,0.008567,0.000003,0.003235,-0.000088,-0.004494,-1.570448,-0.001620,-0.001558,-0.706982,0.707228,2,10.300438,99.986313,32.931728,69,65,60,64.66666666666667,8,49.435047,-0.000744,0.000000,0
244,12.210000,-104.982799,-57.560412,0.316922,13.887307,0.005344,0.000004,0.009289,0.000297,-0.004494,-1.570131,-0.001483,-0.001694,-0.706869,0.707340,2,10.500672,99.989075,32.943870,68,64,59,63.666666666666664,8,49.435043,-0.002011,0.000000,0
245,12.260000,-104.982412,-58.254777,0.316922,13.887282,0.000516,0.000007,0.022510,0.000322,-0.004494,-1.569313,-0.001474,-0.001704,-0.706580,0.707629,2,10.926193,99.965630,32.933209,64,61,56,60.333333333333336,8,49.435043,-0.005028,0.000000,0
246,12.310000,-104.981429,-58.949134,0.316924,13.887008,0.014775,0.000080,0.043738,0.000666,-0.004493,-1.567615,-0.001350,-0.001826,-0.705979,0.708229,2,11.000128,99.987236,32.984962,57,55,51,54.333333333333336,8,49.435059,-0.009744,0.000000,0
247,12.360000,-104.979212,-59.643462,0.316931,13.886383,0.023047,0.000198,0.062583,0.001710,-0.004488,-1.564884,-0.000976,-0.002195,-0.705010,0.709193,2,11.973373,99.992111,32.982367,44,44,41,43.0,8,49.435079,-0.013610,0.000000,0
248,12.410000,-104.974674,-60.337751,0.316939,13.885995,0.010008,0.000184,0.071405,0.002497,-0.004486,-1.561469,-0.000692,-0.002472,-0.703797,0.710397,2,11.500620,99.917709,32.966269,41,44,38,41.0,8,49.435057,-0.015327,0.000000,0
249,12.460000,-104.967348,-61.032003,0.316943,13.885722,0.003329,0.000181,0.077655,0.002682,-0.004487,-1.557724,-0.000622,-0.002539,-0.702466,0.711713,2,11.354120,99.958199,32.938321,52,62,46,53.333333333333336,8,49.435053,-0.016751,0.000000,0
250,12.510000,-104.957337,-61.726204,0.316948,13.885324,0.007564,0.000264,0.085340,0.002937,-0.004488,-1.553646,-0.000526,-0.002629,-0.701013,0.713144,2,10.804540,99.992439,32.990550,51,63,44,52.666666666666664,8,49.435040,-0.018389,0.000000,0
251,12.560000,-104.944536,-62.420332,0.316954,13.884653,0.004261,0.000346,0.102574,0.003165,-0.004487,-1.548941,-0.000438,-0.002710,-0.699333,0.714791,2,10.472885,99.863235,32.999851,39,44,37,40.0,8,49.435031,-0.022164,0.000000,0
